,city,country,date,lat,lon,max_temp,temperature,humidity,cloudiness,wind speed
0,castro,BR,1582183000,-24.79,-50.01,65.98,65.98,97,95,1.03
1,busselton,AU,1582183001,-33.65,115.33,93.99,92.73,9,0,2.68
2,zyukayka,RU,1582183001,58.2,54.7,31.37,31.37,93,91,8.93
3,robore,BO,1582183001,-18.33,-59.75,76.57,76.57,83,95,1.7
4,rikitea,PF,1582183001,-23.12,-134.97,78.49,78.49,80,14,14.5
5,cape town,ZA,1582183001,-33.93,18.42,73.99,70.11,77,40,19.46
6,saint-joseph,RE,1582183002,-21.37,55.62,86.0,82.26,58,0,21.92
7,nome,US,1582183002,64.5,-165.41,5.0,3.87,77,90,12.75
8,salinas,US,1582183002,36.68,-121.66,51.01,46.65,87,90,1.48
9,chokurdakh,RU,1582183003,70.63,147.92,-10.03,-10.03,92,86,7.0
10,kaitangata,NZ,1582183003,-46.28,169.85,59.0,57.24,96,92,11.99
11,mikhaylovka,RU,1582183003,50.06,43.24,36.0,36.0,94,100,5.01
12,bluff,NZ,1582183003,-46.6,168.33,70.0,70.0,77,100,4.0
13,new norfolk,AU,1582183004,-42.78,147.06,64.4,60.48,39,40,17.22
14,atuona,PF,1582183004,-9.8,-139.03,81.16,81.16,80,16,19.35
15,itanhaem,BR,1582183004,-24.18,-46.79,71.6,71.6,88,20,4.7
16,cherskiy,RU,1582183005,68.75,161.3,-20.24,-20.24,97,99,4.99
17,makokou,GA,1582183005,0.57,12.86,71.26,71.26,94,68,1.81
18,haines junction,CA,1582183005,60.75,-137.51,17.46,17.46,94,89,13.65
19,christchurch,NZ,1582182900,-43.53,172.63,64.99,62.19,82,100,17.22
20,vaini,TO,1582183005,-21.2,-175.2,78.8,78.8,69,40,6.93
21,hobart,AU,1582182855,-42.88,147.33,64.4,60.8,39,40,17.22
22,antalaha,MG,1582183006,-14.9,50.28,81.75,81.75,74,37,6.8
23,ushuaia,AR,1582182918,-54.8,-68.3,46.4,46.4,87,75,24.16
24,jalu,LY,1582183006,29.03,21.55,52.36,52.36,73,0,6.49
25,northam,GB,1582183007,51.03,-4.22,50.0,48.67,93,75,14.99
26,jamestown,US,1582183007,42.1,-79.24,24.8,19.62,85,90,5.53
27,punta arenas,CL,1582183007,-53.15,-70.92,44.6,42.6,71,40,9.17
28,arraial do cabo,BR,1582183007,-22.97,-42.03,77.34,77.34,86,100,23.94
29,henties bay,NA,1582183007,-22.12,14.28,64.99,64.99,96,100,3.02
30,thompson,CA,1582183008,55.74,-97.86,1.4,1.4,64,5,8.05
31,itarema,BR,1582183008,-2.92,-39.92,74.44,74.44,93,100,3.67
32,sao francisco do sul,BR,1582183008,-26.24,-48.64,75.0,71.47,86,88,5.95
33,asosa,ET,1582183008,10.07,34.53,77.52,77.52,15,21,7.56
34,longyearbyen,SJ,1582183009,78.22,15.64,10.4,10.4,60,75,23.04
35,port hardy,CA,1582183009,50.7,-127.42,30.2,30.2,92,40,4.7
36,tuktoyaktuk,CA,1582183009,69.45,-133.04,5.0,5.0,77,90,18.34
37,coihaique,CL,1582183009,-45.58,-72.07,32.67,32.67,95,0,2.13
38,izhma,RU,1582183009,65.01,53.91,32.02,32.02,91,100,8.79
39,sitka,US,1582183010,57.05,-135.33,37.4,36.82,86,90,5.82
40,mataura,NZ,1582183010,-46.19,168.86,70.0,70.0,77,93,4.0
41,sabha,LY,1582183010,27.04,14.43,50.54,50.54,49,50,9.26
42,petropavlovsk-kamchatskiy,RU,1582183010,53.05,158.65,19.4,19.4,31,0,4.47
43,port lincoln,AU,1582183010,-34.73,135.87,64.44,64.44,57,98,11.54
44,ndele,CF,1582183011,8.41,20.65,76.1,76.1,25,51,6.73
45,smithers,CA,1582183011,54.78,-127.17,24.8,24.8,79,90,3.36
46,fortuna,US,1582183011,40.6,-124.16,41.0,40.05,100,40,3.51
47,albany,US,1582182723,42.6,-73.97,26.6,20.97,72,90,4.7
48,port elizabeth,ZA,1582183011,-33.92,25.57,80.6,80.6,61,35,28.86
49,oranjemund,NA,1582183012,-28.55,16.43,66.4,66.4,89,97,10.11
50,adrar,MR,1582183012,20.5,-10.07,65.59,65.59,15,0,12.12
51,khatanga,RU,1582183012,71.97,102.5,-7.37,-7.37,85,6,4.81
52,iqaluit,CA,1582182734,63.75,-68.51,-31.0,-31.0,59,40,9.17
53,coari,BR,1582183013,-4.08,-63.14,74.73,74.73,97,100,0.56
54,bima,ID,1582183013,-8.47,118.72,76.39,76.39,92,100,2.01
55,ribeira grande,PT,1582183013,38.52,-28.7,51.8,51.8,57,20,11.41
56,barrow,US,1582183007,71.29,-156.79,-2.2,-2.2,77,90,9.17
57,registro,BR,1582183014,-24.49,-47.84,73.35,73.35,98,93,1.16
58,mayo,US,1582183014,38.89,-76.51,37.99,32.02,45,1,8.48
59,hermanus,ZA,1582183014,-34.42,19.23,73.99,70.16,99,85,1.01
60,khromtau,KZ,1582183014,50.25,58.43,22.1,22.1,87,49,9.57
61,hithadhoo,MV,1582183014,-0.6,73.08,82.92,82.92,78,28,16.15
62,ponta do sol,PT,1582183015,32.67,-17.1,60.8,55.74,59,40,8.05
63,san rafael del sur,NI,1582183015,11.85,-86.44,80.6,80.6,69,20,16.11
64,port alfred,ZA,1582183015,-33.59,26.89,87.01,87.01,67,37,1.99
65,lagunas,PE,1582183015,-5.23,-75.68,73.92,73.92,92,78,2.17
66,calama,CL,1582183016,-22.47,-68.93,55.4,55.4,54,64,9.17
67,waw,SS,1582183016,7.7,28.0,77.99,77.99,19,59,7.81
68,kyzyl-suu,KG,1582183016,42.34,78.0,27.03,27.03,62,0,5.5
69,hasaki,JP,1582182791,35.73,140.83,54.0,52.7,71,75,9.17
70,tasiilaq,GL,1582183016,65.61,-37.64,21.2,21.2,79,83,6.13
71,hilo,US,1582183017,19.73,-155.09,73.4,68.58,69,75,4.7
72,saldanha,ZA,1582183017,-33.01,17.94,68.0,68.0,91,90,11.41
73,tazovskiy,RU,1582183017,67.47,78.7,20.64,20.64,94,100,7.23
74,beyneu,KZ,1582183017,45.32,55.2,37.65,37.65,43,100,14.41
75,paramonga,PE,1582183017,-10.67,-77.83,71.04,71.04,89,100,7.74
76,victoria,HK,1582182900,22.29,114.16,77.0,70.16,56,0,11.41
77,nanortalik,GL,1582183018,60.14,-45.24,19.04,19.04,51,100,7.74
78,saskylakh,RU,1582183018,71.92,114.08,-10.61,-10.61,93,0,2.19
79,qaanaaq,GL,1582183018,77.48,-69.36,-13.29,-13.29,53,0,3.89
80,padang,ID,1582183019,-0.95,100.35,85.73,85.73,52,21,5.03
81,porbandar,IN,1582183019,21.64,69.61,76.19,76.19,66,0,8.59
82,aljezur,PT,1582183019,37.32,-8.8,54.0,52.57,78,0,4.38
83,burnie,AU,1582183019,-41.07,145.92,64.99,62.42,53,1,20.0
84,bulgan,MN,1582183020,48.81,103.53,15.37,15.37,79,69,8.48
85,dunedin,NZ,1582183020,-45.87,170.5,59.0,59.0,87,97,3.0
86,haikou,CN,1582183020,20.05,110.34,80.6,80.6,51,20,17.9
87,doha,QA,1582183020,25.29,51.53,84.99,77.83,47,87,10.29
88,tuatapere,NZ,1582183020,-46.13,167.68,70.0,70.0,77,100,4.0
89,la ronge,CA,1582183021,55.1,-105.28,5.0,5.0,77,5,5.82
90,bredasdorp,ZA,1582183021,-34.53,20.04,69.8,68.72,83,75,5.82
91,bengkulu,ID,1582182930,-3.8,102.27,92.53,92.53,47,3,0.27
92,kodiak,US,1582183021,57.79,-152.41,37.4,37.4,86,90,10.29
93,lodja,CD,1582183021,-3.48,23.43,68.99,68.99,99,100,3.38
94,hayvoron,UA,1582183022,48.34,29.87,35.22,35.22,78,62,3.31
95,dingle,PH,1582183022,11.0,122.67,78.17,78.17,79,97,18.9
96,guerrero negro,MX,1582183022,27.98,-114.06,59.07,59.07,86,0,8.12
97,marrakesh,MA,1582183023,31.63,-8.01,51.8,51.8,87,40,6.93
98,goderich,CA,1582183023,43.75,-81.72,23.0,19.8,74,84,8.99
99,katsuura,JP,1582183023,35.13,140.3,55.99,54.18,58,75,3.36
100,yellowknife,CA,1582183023,62.46,-114.35,15.8,15.03,85,75,5.82
101,cidreira,BR,1582183024,-30.18,-50.21,74.7,74.7,81,22,10.98
102,taloqan,AF,1582183024,36.74,69.53,40.57,40.57,44,28,3.78
103,fort nelson,CA,1582182793,58.81,-122.7,10.4,10.4,85,40,5.82
104,upernavik,GL,1582183024,72.79,-56.15,0.77,0.77,94,100,5.1
105,pokhara,NP,1582182897,28.23,83.98,77.02,77.02,37,96,3.51
106,seymchan,RU,1582183025,62.88,152.43,-19.62,-19.62,100,100,2.53
107,zhigansk,RU,1582183025,66.77,123.37,-7.6,-7.6,96,100,22.39
108,san patricio,MX,1582183025,19.22,-104.7,75.9,75.9,78,0,2.53
109,avarua,CK,1582183025,-21.21,-159.78,80.6,80.6,88,100,4.7
110,sibenik,HR,1582183026,43.73,15.91,48.2,48.13,34,18,10.29
111,east london,ZA,1582182743,-33.02,27.91,82.4,82.4,69,71,5.82
112,clyde river,CA,1582183026,70.47,-68.59,-11.2,-11.2,83,90,13.87
113,tonshayevo,RU,1582183026,57.74,47.01,31.84,31.84,94,97,9.73
114,tura,IN,1582183027,25.52,90.22,85.53,85.53,24,100,3.78
115,bethel,US,1582183027,41.37,-73.41,32.0,27.0,46,1,3.36
116,laguna,US,1582183027,38.42,-121.42,51.01,45.95,70,1,2.1
117,puerto ayora,EC,1582183027,-0.74,-90.35,77.56,77.56,89,42,8.34
118,georgetown,MY,1582182889,5.41,100.34,91.4,91.4,52,20,6.93
119,bandarbeyla,SO,1582183028,9.49,50.81,77.41,77.41,71,100,7.23
120,tortoli,IT,1582182856,39.93,9.66,53.6,53.6,58,5,19.46
121,maues,BR,1582183028,-3.38,-57.72,73.76,73.76,99,100,1.01
122,ambon,ID,1582183029,-3.7,128.18,85.33,85.33,70,19,15.41
123,mandiana,GN,1582183029,10.63,-8.68,68.0,68.0,19,12,4.54
124,norman wells,CA,1582183029,65.28,-126.83,6.8,6.8,84,75,3.36
125,severodvinsk,RU,1582183029,64.56,39.83,28.4,28.4,79,40,6.71
126,butaritari,KI,1582183029,3.07,172.79,82.71,82.71,81,100,13.62
127,miles city,US,1582183030,46.41,-105.84,12.0,10.98,92,1,9.17
128,flinders,AU,1582183030,-34.58,150.86,73.0,71.15,53,40,14.99
129,springdale,US,1582182916,36.19,-94.13,44.6,42.6,45,90,13.87
130,los llanos de aridane,ES,1582183030,28.66,-17.92,62.6,62.6,63,75,13.87
131,coquimbo,CL,1582183030,-29.95,-71.34,61.92,61.92,90,0,1.23
132,mamlyutka,KZ,1582183031,54.94,68.54,26.6,26.6,86,90,24.61
133,antofagasta,CL,1582182960,-23.65,-70.4,68.0,68.0,77,90,2.24
134,woodward,US,1582182998,36.43,-99.39,34.0,33.17,82,90,17.22
135,bud,US,1582183032,39.45,-86.18,30.99,28.69,68,90,9.17
136,sao filipe,CV,1582183032,14.9,-24.5,71.47,71.47,65,45,20.11
137,lebu,CL,1582183032,-37.62,-73.65,50.47,50.47,62,0,5.01
138,margate,GB,1582182754,51.38,1.39,48.99,47.41,93,75,19.46
139,pevek,RU,1582183032,69.7,170.31,-13.2,-13.2,99,100,5.3
140,saint-philippe,RE,1582183033,-21.36,55.77,86.0,82.26,58,0,21.92
141,hommelvik,NO,1582183033,63.41,10.79,37.4,36.07,55,100,8.05
142,vanimo,PG,1582183033,-2.67,141.3,82.02,82.02,79,59,15.14
143,progreso,MX,1582183033,21.28,-89.67,77.0,75.76,83,5,9.17
144,omsukchan,RU,1582183034,62.53,155.8,-24.54,-24.54,100,87,1.88
145,sile,TR,1582183034,41.18,29.61,48.99,46.08,93,75,9.17
146,camopi,GF,1582183034,3.17,-52.32,71.28,71.28,90,89,4.59
147,baijiantan,CN,1582183034,45.63,85.18,22.05,22.05,81,70,9.64
148,brae,GB,1582183035,60.4,-1.35,42.8,41.79,75,75,20.8
149,cabo san lucas,MX,1582182908,22.89,-109.91,66.99,65.26,71,7,8.03
150,kurilsk,RU,1582183035,45.23,147.88,25.56,25.56,74,91,18.03
151,vestmannaeyjar,IS,1582183035,63.44,-20.27,35.6,35.6,70,75,17.22
152,kapaa,US,1582183035,22.08,-159.32,75.2,73.22,73,90,23.04
153,tiksi,RU,1582183036,71.69,128.87,-2.25,-2.25,83,100,12.17
154,egvekinot,RU,1582183036,66.32,-179.17,-17.07,-17.07,86,0,9.35
155,garowe,SO,1582183036,8.41,48.48,74.98,74.98,62,100,10.89
156,gunjur,GM,1582183036,13.2,-16.73,71.6,71.6,53,71,4.7
157,campbell river,CA,1582182881,50.02,-125.24,32.0,31.15,62,20,4.74
158,constitucion,CL,1582183037,-35.33,-72.42,56.26,56.26,52,0,6.93
159,jonava,LT,1582183037,55.08,24.28,37.4,36.86,86,90,5.82
160,roald,NO,1582183038,62.58,6.13,46.0,41.09,63,75,14.99
161,sarrebourg,FR,1582183038,48.73,7.05,44.6,42.8,86,75,8.05
162,nouadhibou,MR,1582183038,20.93,-17.03,62.6,62.6,77,0,18.34
163,gayny,RU,1582183038,60.31,54.32,30.6,30.6,94,95,7.25
164,naze,JP,1582183038,28.37,129.48,66.2,65.23,55,75,8.05
165,carnarvon,AU,1582183039,-24.87,113.63,93.2,93.2,41,97,19.46
166,nishihara,JP,1582183039,26.18,127.76,69.8,67.98,52,40,11.41
167,trincomalee,LK,1582183039,8.57,81.23,81.82,81.82,63,100,7.58
168,san lorenzo,PY,1582183039,-25.33,-57.53,80.6,80.6,83,2,2.24
169,porto novo,BJ,1582183039,6.5,2.6,82.4,82.4,88,20,2.24
170,geraldton,AU,1582183040,-28.77,114.6,84.2,84.2,48,75,8.05
171,oktyabrskiy,RU,1582183040,54.48,53.47,31.96,31.96,97,99,7.81
172,provideniya,RU,1582183040,64.38,-173.3,1.4,1.4,64,100,15.66
173,leningradskiy,RU,1582183041,69.38,178.42,-9.76,-9.76,93,100,20.54
174,aguimes,ES,1582183041,27.91,-15.45,62.6,61.38,63,75,21.92
175,pangody,RU,1582183041,65.85,74.49,28.06,28.06,96,100,6.73
176,panaba,MX,1582183041,21.28,-88.27,74.23,74.23,85,0,7.49
177,tonj,SS,1582183041,7.27,28.68,79.68,79.68,17,35,7.63
178,atherton,GB,1582183042,53.52,-2.49,52.0,49.1,76,75,11.41
179,sarlat-la-caneda,FR,1582182887,44.89,1.22,37.99,34.5,97,90,5.82
180,kloulklubed,PW,1582183042,7.04,134.26,82.4,82.4,74,75,10.29
181,koumac,NC,1582183042,-20.57,164.28,75.33,75.33,83,94,1.28
182,kincardine,GB,1582183042,56.07,-3.72,44.6,41.59,93,75,10.29
183,vila franca do campo,PT,1582183043,37.72,-25.43,51.8,51.8,62,20,12.75
184,poum,NC,1582183043,-20.23,164.02,80.8,80.8,77,3,14.65
185,bambous virieux,MU,1582183044,-20.34,57.76,82.99,82.71,69,40,12.75
186,airai,TL,1582183044,-8.93,125.41,76.82,76.82,84,70,2.44
187,mahebourg,MU,1582183044,-20.41,57.7,82.99,82.69,69,40,12.75
188,gamboula,CF,1582183044,4.12,15.14,68.2,68.2,71,25,1.66
189,izumo,JP,1582183045,35.37,132.77,53.6,53.6,60,20,9.17
190,greenfield,US,1582182758,42.96,-88.01,14.0,7.16,46,1,9.17
191,sao gabriel da cachoeira,BR,1582183045,-0.13,-67.09,75.56,75.56,87,97,1.68
192,xining,CN,1582183045,36.62,101.77,28.51,28.51,40,76,9.17
193,villamontes,BO,1582183045,-21.25,-63.5,72.97,72.97,81,100,4.23
194,kamina,CD,1582183046,-8.74,24.99,69.39,69.39,93,100,3.36
195,salalah,OM,1582183046,17.02,54.09,78.8,78.8,61,40,6.93
196,leh,IN,1582183046,34.17,77.58,9.03,9.03,61,76,2.77
197,russell,US,1582183046,32.35,-85.2,54.0,52.45,93,90,4.7
198,hambantota,LK,1582183047,6.12,81.12,83.68,83.68,71,0,15.61
199,zeerust,ZA,1582183047,-25.54,26.08,71.6,71.6,64,75,9.17
200,ahipara,NZ,1582183047,-35.17,173.17,75.99,75.99,86,79,7.92
201,sur,OM,1582183047,22.57,59.53,80.11,80.11,25,24,3.65
202,gerede,TR,1582183047,40.8,32.2,38.89,38.89,66,100,2.91
203,te anau,NZ,1582183048,-45.42,167.72,62.46,62.46,78,96,8.03
204,taft,IR,1582183048,31.75,54.21,55.4,55.4,35,75,4.7
205,irece,BR,1582183048,-11.3,-41.86,67.98,67.98,93,24,6.24
206,san quintin,MX,1582183048,30.48,-115.95,56.84,56.84,92,0,7.38
207,ossora,RU,1582183049,59.24,163.07,0.66,0.66,81,22,8.32
208,roma,US,1582183026,43.21,-75.46,23.0,20.59,85,90,4.7
209,dakar,SN,1582182941,14.69,-17.44,73.4,72.45,83,93,18.34
210,kavaratti,IN,1582183049,10.57,72.64,81.91,81.91,67,0,8.32
211,saint-ambroise,CA,1582183050,48.55,-71.33,-6.0,-10.03,63,40,11.41
212,ilulissat,GL,1582183050,69.22,-51.1,-2.2,-2.2,49,100,2.24
213,quatre cocos,MU,1582183050,-20.21,57.76,82.99,82.74,69,40,12.75
214,naustdal,NO,1582183051,61.51,5.72,39.2,38.37,94,75,14.99
215,saint-augustin,CA,1582183051,51.23,-58.65,12.9,12.9,73,100,23.64
216,cheney,US,1582183051,47.49,-117.58,30.2,25.52,73,1,6.93
217,meulaboh,ID,1582183051,4.14,96.13,81.79,81.79,76,3,5.57
218,luderitz,NA,1582183052,-26.65,15.16,64.63,64.63,90,40,18.01
219,champerico,GT,1582183052,14.3,-91.92,75.9,75.9,74,6,3.27
220,kenai,US,1582182885,60.55,-151.26,28.0,25.45,79,90,5.82
221,komsomolskiy,UZ,1582183052,40.43,71.72,39.2,38.44,55,0,3.91
222,van,TR,1582183053,38.49,43.38,35.6,35.6,93,75,1.66
223,arinos,BR,1582183053,-15.92,-46.11,69.01,69.01,95,95,0.25
224,antipino,RU,1582183053,57.11,65.76,35.6,35.6,95,90,11.18
225,chapais,CA,1582183053,49.78,-74.85,-23.8,-23.8,74,40,5.82
226,srednekolymsk,RU,1582183054,67.45,153.68,-17.75,-17.75,96,86,4.59
227,vozhega,RU,1582183054,60.47,40.22,32.38,32.38,97,100,8.21
228,cockburn town,TC,1582183054,21.46,-71.14,77.43,77.43,78,8,20.07
229,gobabis,NA,1582183054,-22.45,18.97,71.83,71.83,71,84,8.93
230,arona,ES,1582182933,28.1,-16.68,62.01,57.56,63,20,9.17
231,ancud,CL,1582183056,-41.87,-73.82,48.2,48.2,81,0,11.41
232,palmer,US,1582182837,42.16,-72.33,26.01,22.17,49,1,4.07
233,ponnani,IN,1582183056,10.77,75.93,89.6,89.6,49,20,4.7
234,ketchikan,US,1582183057,55.34,-131.65,35.6,35.6,93,20,3.36
235,sukhaya buyvola,RU,1582183057,45.15,43.0,39.2,39.15,67,38,6.71
236,gazojak,TM,1582183057,41.19,61.4,42.58,42.58,47,13,16.87
237,kaseda,JP,1582183057,31.42,130.32,59.0,57.85,41,40,8.05
238,muravlenko,RU,1582183058,63.79,74.52,30.76,30.76,95,94,15.35
239,chuy,UY,1582183058,-33.7,-53.46,67.28,67.28,92,0,5.32
240,dicabisagan,PH,1582183058,17.08,122.42,74.43,74.43,66,44,14.38
241,qaqortoq,GL,1582183058,60.72,-46.03,8.6,8.6,46,100,10.31
242,zabol,AF,1582183059,32.25,67.25,32.43,32.43,42,0,6.24
243,troitsko-pechorsk,RU,1582183059,62.71,56.2,31.26,31.26,92,100,8.41
244,honningsvag,NO,1582183059,70.98,25.97,28.4,28.4,79,75,9.17
245,mar del plata,AR,1582182888,-38.0,-57.56,55.0,54.68,81,35,5.82
246,beaverlodge,CA,1582183060,55.22,-119.44,6.8,6.8,92,20,4.7
247,hell,NO,1582183060,63.45,10.9,37.4,36.18,55,100,8.05
248,acapulco,MX,1582182860,16.86,-99.89,77.0,77.0,69,5,4.09
249,sao joao da barra,BR,1582183060,-21.64,-41.05,76.5,76.5,85,100,14.41
250,penzance,GB,1582183061,50.12,-5.54,51.01,50.14,93,90,27.51
251,mehamn,NO,1582183061,71.04,27.85,28.4,27.45,86,40,24.16
252,ashington,GB,1582183061,50.93,-0.39,48.99,47.48,100,75,13.87
253,abu zabad,SD,1582183061,12.35,29.25,68.43,68.43,24,9,22.26
254,tabuk,PH,1582183062,17.42,121.44,73.9,73.9,67,76,9.66
255,klaksvik,FO,1582183062,62.23,-6.59,37.4,37.4,69,100,29.97
256,beringovskiy,RU,1582183062,63.05,179.32,-14.3,-14.3,84,0,16.11
257,hobyo,SO,1582183062,5.35,48.53,83.16,83.16,64,83,13.33
258,kavieng,PG,1582183062,-2.57,150.8,84.02,84.02,73,13,18.21
259,lexington,US,1582183063,37.99,-84.48,36.0,33.8,59,1,12.75
260,paciran,ID,1582183063,-6.88,112.38,79.09,79.09,88,99,12.37
261,mahon,ES,1582183063,39.89,4.27,44.6,44.6,87,0,5.82
262,havoysund,NO,1582183063,71.0,24.66,28.4,28.4,79,75,9.17
263,faanui,PF,1582183063,-16.48,-151.75,83.34,83.34,77,100,18.05
264,jiuquan,CN,1582183064,39.74,98.52,21.29,21.29,55,83,2.24
265,dikson,RU,1582183064,73.51,80.55,6.91,6.91,88,97,9.06
266,mahibadhoo,MV,1582183064,3.78,72.97,81.68,81.68,75,11,18.12
267,yumen,CN,1582183064,40.28,97.2,32.59,32.59,24,100,24.2
268,katima mulilo,NA,1582183064,-17.5,24.27,70.39,70.39,88,71,6.46
269,lagoa,PT,1582183065,39.05,-27.98,54.52,54.52,59,0,14.47
270,yeppoon,AU,1582183065,-23.13,150.73,89.6,89.6,52,75,16.11
271,portland,US,1582182600,45.52,-122.68,48.2,42.26,36,1,17.22
272,bayan,CN,1582183066,46.08,127.4,33.01,33.01,41,92,5.91
273,kruisfontein,ZA,1582183066,-34.0,24.73,76.55,76.55,63,17,16.96
274,isangel,VU,1582183066,-19.55,169.27,79.2,79.2,79,45,12.93
275,vila,PT,1582183066,42.03,-8.16,48.0,41.25,93,0,3.36
276,lyuban,BY,1582183067,52.8,28.0,33.13,33.13,89,42,5.39
277,usinsk,RU,1582183067,65.99,57.53,27.84,27.84,97,98,4.63
278,fereydunshahr,IR,1582183067,32.94,50.12,32.22,32.22,100,100,4.9
279,north battleford,CA,1582183067,52.78,-108.28,8.01,6.12,77,1,8.05
280,calabozo,VE,1582183067,8.92,-67.43,77.11,77.11,67,0,8.72
281,bowen,AU,1582183068,-20.02,148.23,89.6,88.63,55,56,8.05
282,varhaug,NO,1582183068,58.61,5.65,44.01,42.44,87,75,21.92
283,pochutla,MX,1582183068,15.74,-96.47,83.01,83.01,61,0,5.79
284,codrington,AU,1582183068,-38.27,141.97,58.96,58.96,70,75,13.42
285,eucaliptus,BO,1582183068,-17.58,-67.52,48.31,48.31,83,100,6.73
286,mangrol,IN,1582183069,21.12,70.12,77.13,77.13,60,0,6.38
287,uhlove,UA,1582183069,44.82,33.6,42.31,42.31,86,95,11.92
288,teahupoo,PF,1582183069,-17.83,-149.27,82.4,82.2,69,20,4.7
289,ilorin,NG,1582183069,8.5,4.55,73.2,73.2,23,0,3.74
290,nikolskoye,RU,1582183070,59.7,30.79,35.6,35.33,93,90,8.95
291,brasy,CZ,1582183070,49.84,13.58,36.0,34.09,95,90,5.82
292,euclides da cunha,BR,1582183070,-10.51,-39.02,68.5,68.5,94,54,5.88
293,alugan,PH,1582183070,12.22,125.48,79.12,79.12,81,14,19.42
294,roswell,US,1582182797,34.02,-84.36,48.2,45.43,93,90,5.82
295,lompoc,US,1582183071,34.64,-120.46,54.0,47.84,87,90,4.7
296,namatanai,PG,1582183071,-3.67,152.43,83.8,83.8,73,4,11.88
297,rio grande,BR,1582182837,-32.03,-52.1,71.62,71.62,82,0,11.41
298,dabat,ET,1582182965,12.98,37.77,66.96,66.96,41,13,4.14
299,arrifes,PT,1582183072,37.77,-25.7,51.8,51.8,62,20,12.75
300,malko tarnovo,BG,1582183072,41.98,27.53,46.4,45.81,93,90,4.7
301,mega,ET,1582183072,4.05,38.3,74.37,74.37,46,34,10.09
302,launceston,AU,1582183072,-41.45,147.17,68.0,66.0,52,2,17.22
303,makakilo city,US,1582183073,21.35,-158.09,73.4,70.16,94,90,6.93
304,harper,LR,1582183073,4.38,-7.72,76.21,76.21,95,50,2.57
305,san cristobal,VE,1582183073,7.77,-72.22,56.55,56.55,97,94,1.99
306,husavik,IS,1582183073,66.04,-17.34,33.8,33.8,93,90,14.99
307,taoudenni,ML,1582183074,22.68,-3.98,65.5,65.5,13,78,8.19
308,souillac,MU,1582183074,-20.52,57.52,82.99,82.71,69,40,12.75
309,oksbol,DK,1582183074,55.63,8.29,44.01,41.23,100,100,20.8
310,buala,SB,1582183074,-8.14,159.59,85.46,85.46,71,14,11.36
311,ponta delgada,PT,1582183074,37.73,-25.67,51.8,51.8,62,20,12.75
312,keti bandar,PK,1582183075,24.14,67.45,80.58,80.58,19,0,14.7
313,bintulu,MY,1582183075,3.17,113.03,87.8,87.53,74,75,11.41
314,andenes,NO,1582183075,69.31,16.12,26.6,23.88,63,57,12.75
315,colares,PT,1582183075,38.8,-9.45,53.01,48.29,71,20,5.82
316,honiara,SB,1582183076,-9.43,159.95,87.8,87.8,70,75,12.75
317,bilibino,RU,1582183076,68.05,166.44,-25.73,-25.73,99,100,1.79
318,corod,RO,1582183076,45.9,27.62,41.59,41.59,78,100,3.4
319,bilma,NE,1582183076,18.69,12.92,57.6,57.6,34,0,7.23
320,curup,ID,1582183076,-3.47,102.53,81.48,81.48,66,55,4.14
321,esperance,AU,1582183077,-33.87,121.9,77.0,77.0,44,40,19.46
322,maniitsoq,GL,1582183077,65.42,-52.9,4.69,4.69,61,28,9.78
323,zastron,ZA,1582183077,-30.3,27.08,67.93,67.93,69,67,9.19
324,horta,PT,1582183077,38.53,-28.63,51.8,51.8,57,20,11.41
325,maua,BR,1582183078,-23.67,-46.46,71.6,71.37,88,20,4.7
326,caronport,CA,1582183078,50.45,-105.82,12.0,12.0,78,0,10.0
327,saint george,US,1582183078,37.1,-113.58,42.8,35.13,28,1,4.7
328,bria,CF,1582183078,6.54,21.99,76.32,76.32,46,46,1.39
329,brewster,US,1582183079,41.4,-73.62,32.0,26.94,49,1,4.7
330,valparaiso,CL,1582182906,-33.04,-71.63,51.8,51.08,93,0,3.36
331,ayagoz,KZ,1582183079,47.97,80.44,19.04,19.04,92,100,6.53
332,banjarmasin,ID,1582183079,-3.32,114.59,89.29,89.29,59,82,6.58
333,erzin,TR,1582183079,36.96,36.2,57.2,56.19,76,20,5.82
334,sao caetano de odivelas,BR,1582183080,-0.75,-48.02,73.98,73.98,99,100,1.81
335,ixtapa,MX,1582182829,20.7,-105.2,71.01,70.5,94,5,1.99
336,zaria,NG,1582183080,11.11,7.72,63.59,63.59,26,0,11.27
337,porto velho,BR,1582183080,-8.76,-63.9,75.2,75.2,94,40,1.81
338,manokwari,ID,1582183080,-0.87,134.08,81.55,81.55,67,14,10.16
339,zhicheng,CN,1582183081,30.3,111.5,61.48,61.48,49,30,7.63
340,tevaitoa,PF,1582183081,-16.78,-151.5,83.32,83.32,76,100,17.45
341,hokitika,NZ,1582183081,-42.72,170.97,63.68,63.68,76,97,9.37
342,yaan,NG,1582183081,7.38,8.57,71.24,71.24,22,12,4.07
343,torrington,US,1582183082,41.8,-73.12,28.4,23.45,58,1,3.36
344,vila do maio,CV,1582182964,15.13,-23.22,71.69,71.69,80,98,20.54
345,gouyave,GD,1582183082,12.16,-61.73,73.4,73.4,88,90,11.41
346,belyy yar,RU,1582183082,53.6,91.39,33.8,33.8,59,100,15.66
347,buraydah,SA,1582182803,26.33,43.98,59.0,59.0,77,0,14.99
348,dalkola,IN,1582183083,25.85,87.85,81.91,81.91,24,86,4.38
349,skjervoy,NO,1582183083,70.03,20.97,32.0,26.04,62,83,20.8
350,chern,RU,1582183083,53.45,36.91,30.9,30.9,94,99,7.81
351,quthing,LS,1582183083,-30.4,27.7,64.45,64.45,75,81,2.3
352,lerwick,GB,1582183084,60.15,-1.15,42.8,41.9,81,40,25.28
353,necochea,AR,1582183084,-38.55,-58.74,60.01,59.43,64,2,14.0
354,fare,PF,1582183084,-16.7,-151.02,83.53,83.53,76,87,16.96
355,bonthe,SL,1582183084,7.53,-12.51,77.94,77.94,91,48,5.19
356,grindavik,IS,1582183085,63.84,-22.43,35.6,34.66,76,75,19.46
357,mackenzie,CA,1582183085,55.3,-123.17,21.2,21.2,85,1,6.93
358,pacific grove,US,1582182837,36.62,-121.92,51.01,46.74,87,90,5.7
359,fort wellington,GY,1582183086,6.4,-57.6,78.73,78.73,77,25,18.01
360,imbituba,BR,1582183086,-28.24,-48.67,73.4,73.4,100,75,3.36
361,eregli,TR,1582183086,37.51,34.05,38.8,38.8,52,1,2.51
362,torbay,CA,1582183086,47.67,-52.73,27.0,25.66,85,90,25.28
363,kuytun,RU,1582183087,54.34,101.5,21.88,21.88,78,100,4.52
364,manoel urbano,BR,1582183087,-8.84,-69.26,73.89,73.89,96,100,1.54
365,kulhudhuffushi,MV,1582183087,6.62,73.07,82.4,82.4,72,0,20.02
366,aykhal,RU,1582183087,66.0,111.5,4.24,4.24,94,59,12.28
367,bunia,CD,1582183087,1.57,30.25,76.78,76.78,67,30,2.55
368,beloha,MG,1582183088,-25.17,45.05,84.49,84.49,55,0,9.1
369,nemuro,JP,1582183088,43.32,145.57,32.0,32.0,75,40,9.17
370,camacha,PT,1582183088,33.08,-16.33,60.8,59.79,58,75,12.75
371,cam ranh,VN,1582183088,11.92,109.16,84.2,84.2,66,40,19.46
372,vidim,RU,1582183089,56.41,103.11,19.99,19.99,90,100,10.6
373,nuuk,GL,1582183018,64.18,-51.72,8.6,8.6,78,59,16.11
374,chimore,BO,1582183089,-16.98,-65.13,74.28,74.28,98,97,1.86
375,narsaq,GL,1582183089,60.92,-46.05,8.6,8.6,46,93,8.16
376,trapani,IT,1582183089,37.83,12.67,57.2,51.93,76,40,12.75
377,lensk,RU,1582182837,60.73,114.93,14.65,14.65,85,100,9.69
378,broome,US,1582183090,42.25,-75.83,24.01,20.44,67,90,10.29
379,upata,VE,1582183090,8.01,-62.4,69.62,69.62,81,26,7.31
380,george town,MY,1582182889,5.41,100.34,91.4,91.4,52,20,6.93
381,rovigo,IT,1582183090,45.08,11.79,42.01,38.17,93,0,3.36
382,amuntai,ID,1582183091,-2.42,115.25,89.94,89.94,55,35,3.33
383,baruun-urt,MN,1582183091,46.68,113.28,23.5,23.5,87,100,13.87
384,batemans bay,AU,1582183091,-35.72,150.18,69.01,67.98,63,0,3.0
385,anadyr,RU,1582183091,64.75,177.48,-18.0,-18.18,68,8,8.95
386,cordoba,AR,1582182962,-31.41,-64.18,70.0,66.2,88,0,4.7
387,cotacachi,EC,1582183092,0.3,-78.27,55.4,55.4,93,75,6.93
388,umm lajj,SA,1582183092,25.02,37.27,61.97,61.97,40,0,8.08
389,walvis bay,NA,1582183081,-22.96,14.51,64.99,63.84,100,90,5.82
390,deniliquin,AU,1582183092,-35.53,144.97,77.09,77.09,28,44,11.79
391,deputatskiy,RU,1582183093,69.3,139.9,-8.0,-8.0,91,100,3.78
392,jacareacanga,BR,1582183093,-6.22,-57.75,72.66,72.66,99,100,2.46
393,pathein,MM,1582183093,16.78,94.73,81.0,81.0,47,12,10.02
394,tomohon,ID,1582183093,1.33,124.84,87.8,87.8,66,40,14.99
395,gubbio,IT,1582183094,43.35,12.57,44.01,40.03,93,12,2.24
396,san jeronimo,PE,1582183094,-11.95,-75.28,44.71,44.71,86,100,0.94
397,katete,UG,1582183094,-0.78,29.75,66.74,66.74,84,44,1.81
398,ambo,PE,1582183094,-10.13,-76.2,46.13,46.13,89,86,4.05
399,banjar,ID,1582183094,-8.19,114.97,87.8,87.8,74,20,9.17
400,teya,RU,1582183095,60.38,92.63,24.28,24.28,85,100,10.87
401,belaya gora,RU,1582183095,68.53,146.42,-11.34,-11.34,95,100,6.6
402,gimli,CA,1582183095,50.63,-96.99,-5.01,-9.18,78,0,8.01
403,pangnirtung,CA,1582183095,66.15,-65.71,-31.92,-31.92,83,4,1.83
404,danielskuil,ZA,1582183096,-28.19,23.54,71.67,71.67,60,33,8.95
405,quelimane,MZ,1582183096,-17.88,36.89,84.2,84.2,89,75,6.93
406,zilina,SK,1582183096,49.17,19.17,37.4,33.71,93,75,3.36
407,carbonia,IT,1582183096,39.17,8.52,50.0,49.12,87,40,5.82
408,chicama,PE,1582183097,-7.84,-79.15,71.6,71.6,88,40,4.7
409,port blair,IN,1582183097,11.67,92.75,81.32,81.32,80,84,17.9
410,ajdabiya,LY,1582183097,30.76,20.23,60.46,60.46,75,100,16.55
411,newport,GB,1582183097,51.59,-3.0,51.01,48.29,93,75,13.87
412,yarim,YE,1582183098,14.3,44.38,63.28,63.28,49,31,5.26
413,hvide sande,DK,1582183098,56.0,8.13,44.01,42.04,100,75,16.11
414,laje,BR,1582183098,-10.18,-40.97,66.36,66.36,95,85,6.67
415,zeya,RU,1582183098,53.75,127.27,7.16,7.16,71,0,5.1
416,villa del rosario,CO,1582183099,7.83,-72.47,73.2,73.2,91,76,1.3
417,north bend,US,1582183099,43.41,-124.22,42.01,39.15,93,1,6.93
418,richards bay,ZA,1582183099,-28.78,32.04,76.41,76.41,85,14,9.19
419,alappuzha,IN,1582183099,9.49,76.33,99.19,99.19,24,0,0.87
420,ardatov,RU,1582183100,55.24,43.1,31.39,31.39,92,76,5.7
421,verkh-usugli,RU,1582183100,52.7,115.17,14.09,14.09,69,100,2.98
422,mingoyo,TZ,1582183100,-10.1,39.63,84.2,84.2,83,40,9.17
423,kuldur,RU,1582183100,49.22,131.63,9.81,9.81,67,17,10.33
424,serebryansk,KZ,1582183101,49.69,83.29,26.6,26.6,92,90,15.66
425,tatawin,TN,1582183101,32.93,10.45,48.2,48.2,81,32,2.24
426,awbari,LY,1582183101,26.59,12.78,48.56,48.56,49,59,4.34
427,caravelas,BR,1582183101,-17.71,-39.25,80.4,80.4,80,13,11.83
428,aklavik,CA,1582183101,68.22,-135.01,6.8,6.8,84,90,8.05
429,lons,FR,1582182861,43.32,-0.4,33.8,32.13,74,28,3.36
430,bathsheba,BB,1582183102,13.22,-59.52,77.0,77.0,69,40,19.46
431,yerbogachen,RU,1582183102,61.28,108.01,14.22,14.22,93,100,7.29
432,guilin,CN,1582183102,25.28,110.29,62.6,62.6,51,90,4.47
433,sorland,NO,1582183103,67.67,12.69,33.8,32.79,69,84,21.92
434,uaua,BR,1582183103,-9.84,-39.48,69.12,69.12,82,62,6.85
435,alihe,CN,1582183103,50.57,123.72,20.07,20.07,51,0,2.73
436,labuhan,ID,1582183103,-6.88,112.21,75.83,75.83,94,100,8.14
437,severomuysk,RU,1582183103,56.15,113.43,6.67,6.67,68,91,3.04
438,cefalu,IT,1582183079,38.04,14.02,57.0,52.03,76,94,3.0
439,edson,CA,1582183104,53.58,-116.44,10.4,10.4,92,1,3.36
440,sao miguel do araguaia,BR,1582183104,-13.28,-50.16,72.28,72.28,92,100,1.99
441,cayenne,GF,1582183104,4.93,-52.33,77.0,77.0,78,20,5.82
442,rabo de peixe,PT,1582183104,37.8,-25.58,51.8,51.8,62,20,12.75
443,hamilton,US,1582182928,39.18,-84.53,32.0,28.92,86,1,3.36
444,thinadhoo,MV,1582183105,0.53,72.93,83.23,83.23,78,68,15.79
445,zaraza,VE,1582183105,9.35,-65.32,73.72,73.72,87,32,6.26
446,santo antonio do monte,BR,1582183105,-20.09,-45.29,67.14,67.14,94,83,4.09
447,kuala terengganu,MY,1582183105,5.33,103.14,81.68,81.68,77,3,15.26
448,touros,BR,1582183106,-5.2,-35.46,75.2,75.2,94,75,4.7
449,venezuela,VE,1582183106,8.0,-66.0,79.41,79.41,65,18,15.64
450,milyutinskaya,RU,1582183106,48.63,41.67,33.78,33.78,99,100,6.22
451,atar,MR,1582183107,20.52,-13.05,66.6,66.6,16,0,10.0
452,mon,IN,1582183107,26.75,95.1,66.83,66.83,60,84,4.5
453,arman,RU,1582183107,59.7,150.17,-1.55,-1.55,88,0,5.35
454,solok,ID,1582182944,-0.79,100.66,85.73,85.73,52,21,5.03
455,galle,LK,1582183107,6.04,80.22,78.44,78.44,77,0,1.79
456,nanakuli,US,1582183108,21.39,-158.15,73.4,70.11,94,90,6.93
457,rosetta,EG,1582183108,31.4,30.42,53.6,53.6,93,40,3.36
458,mahajanga,MG,1582183108,-15.72,46.32,84.2,84.2,79,20,8.05
459,pangkalanbuun,ID,1582183109,-2.68,111.62,93.06,93.06,48,71,0.38
460,sakakah,SA,1582182958,29.97,40.21,50.0,50.0,81,40,12.75
461,dalby,AU,1582183109,-27.18,151.27,87.8,87.8,20,0,13.87
462,namibe,AO,1582183110,-15.2,12.15,74.75,74.75,72,100,9.69
463,voh,NC,1582183110,-20.97,164.7,80.83,80.83,71,6,9.37
464,hadejia,NG,1582183110,12.45,10.04,61.27,61.27,30,0,9.46
465,uchaly,RU,1582183111,54.3,59.45,22.98,22.98,89,96,4.12
466,madison,US,1582183111,34.73,-86.57,48.2,45.37,61,90,6.93
467,mount isa,AU,1582182893,-20.73,139.5,100.4,100.4,18,0,10.29
468,quatis,BR,1582183112,-22.41,-44.26,66.24,66.24,93,89,1.54
469,chernushka,RU,1582183112,56.51,56.08,31.82,31.82,97,100,10.74
470,burns lake,CA,1582183112,54.23,-125.75,17.13,17.13,94,100,1.23
471,yugorsk,RU,1582183113,61.31,63.33,26.8,26.8,91,70,5.7
472,tasgaon,IN,1582183113,17.03,74.6,86.7,86.7,25,70,9.6
473,alofi,NU,1582183113,-19.06,-169.92,78.8,78.8,78,75,13.87
474,najran,SA,1582183113,17.49,44.13,82.4,82.4,20,8,9.17
475,pisco,PE,1582183113,-13.7,-76.22,71.6,71.28,88,100,6.93
476,wonthaggi,AU,1582183114,-38.6,145.59,66.0,62.6,72,99,8.01
477,hovd,MN,1582183114,48.01,91.64,15.64,15.64,36,100,3.74
478,nioro,GM,1582183114,13.35,-15.75,69.46,69.46,22,66,2.57
479,liling,CN,1582183114,27.67,113.5,66.2,66.2,39,0,6.71
480,vardo,NO,1582183114,70.37,31.11,21.2,18.7,78,48,32.21
481,oranjestad,AW,1582183016,12.52,-70.03,78.8,78.8,83,40,18.34
482,prince albert,CA,1582183115,53.2,-105.77,3.2,3.2,77,5,8.05
483,changli,CN,1582183115,39.7,119.15,43.5,43.5,64,21,8.61
484,marsa matruh,EG,1582183116,31.35,27.25,53.6,53.6,66,75,9.17
485,chibombo,ZM,1582183116,-14.66,28.07,68.05,68.05,92,68,5.53
486,satwas,IN,1582183116,22.53,76.68,88.21,88.21,17,4,9.44
487,port hedland,AU,1582183116,-20.32,118.57,96.8,96.8,50,0,14.99
488,manadhoo,MV,1582183117,5.77,73.38,82.18,82.18,76,0,21.85
489,hasanabad,IR,1582183117,36.55,61.05,55.4,55.4,43,67,11.41
490,puerto madryn,AR,1582183117,-42.77,-65.04,52.23,52.23,33,0,11.07
491,waddan,LY,1582183117,29.16,16.14,49.87,49.87,73,16,5.68
492,anshun,CN,1582183118,26.25,105.93,53.38,53.38,80,100,10.31
493,thunder bay,CA,1582182986,48.4,-89.32,0.0,-7.13,69,5,8.05
494,talaya,RU,1582183118,61.38,152.75,-24.07,-24.07,99,89,1.28
495,springbok,ZA,1582183118,-29.66,17.89,68.0,68.0,72,60,3.36
496,sterling,US,1582183118,39.01,-77.43,36.0,30.9,64,1,9.17
497,moron,AR,1582183119,-34.65,-58.62,66.2,64.36,59,0,8.05
498,lasa,IT,1582183119,46.62,10.7,33.8,25.84,79,75,4.7
499,kologriv,RU,1582183119,58.83,44.32,32.38,32.38,96,100,9.19
500,natal,BR,1582183119,-5.79,-35.21,75.2,75.2,94,20,6.93
501,marathon,US,1582183120,44.9,-89.77,-2.2,-7.82,69,1,6.87
502,wanning,CN,1582183120,18.8,110.4,74.17,74.17,68,68,14.0
503,ippy,CF,1582183120,6.27,21.22,79.23,79.23,50,78,3.83
504,mana,GF,1582183120,5.66,-53.78,72.64,72.64,89,98,3.02
505,havre-saint-pierre,CA,1582183121,50.23,-63.6,-4.0,-4.0,53,1,19.46
506,tymovskoye,RU,1582183121,50.85,142.66,13.08,13.08,85,100,4.54
507,hit,IQ,1582183121,33.64,42.83,57.15,57.15,70,49,20.6
508,ulety,RU,1582183121,51.36,112.48,13.39,13.39,75,100,3.67
509,port hawkesbury,CA,1582183122,45.62,-61.35,16.0,14.07,56,1,18.34
510,vizinga,RU,1582183122,61.07,50.1,32.13,32.13,95,100,7.83
511,posse,BR,1582183122,-14.09,-46.37,68.88,68.88,91,83,2.33
512,perisani,RO,1582183122,45.38,24.4,37.4,37.26,87,75,5.82
513,port-gentil,GA,1582183122,-0.72,8.78,82.4,82.4,88,75,3.36
514,coruripe,BR,1582183123,-10.13,-36.18,79.23,79.23,84,100,7.47
515,kitimat,CA,1582182928,54.05,-128.65,32.0,32.0,86,75,2.3
516,sompeta,IN,1582183123,18.93,84.6,84.07,84.07,41,0,6.31
517,sampit,ID,1582183123,-2.53,112.95,94.24,94.24,46,48,3.22
518,davenda,RU,1582183123,53.56,119.32,12.99,12.99,76,6,3.76
519,viseu,PT,1582183124,40.66,-7.91,41.0,36.34,100,0,1.12
520,talcahuano,CL,1582183124,-36.72,-73.12,51.8,51.8,87,0,6.93
521,mogadishu,SO,1582183124,2.04,45.34,81.57,81.57,80,21,14.47
522,manaquiri,BR,1582183125,-3.32,-60.35,80.6,79.7,88,75,2.24
523,talara,PE,1582183125,-4.58,-81.27,74.95,74.95,89,0,12.28
524,kurchum,KZ,1582183125,48.57,83.65,22.75,22.75,88,99,11.74
525,san juan,AR,1582183125,-31.54,-68.54,77.11,77.11,31,0,22.82
526,opuwo,NA,1582183125,-18.06,13.84,68.14,68.14,28,100,4.7
527,mazatlan,MX,1582183008,23.22,-106.42,71.01,69.01,93,5,13.51
528,villa bruzual,VE,1582183126,9.33,-69.12,75.78,75.78,74,40,8.52
529,chincha alta,PE,1582183126,-13.41,-76.13,71.6,71.28,88,100,6.93
530,sola,VU,1582183126,-13.88,167.55,82.8,82.8,81,53,16.53
531,ladario,BR,1582183126,-19.0,-57.6,75.67,75.67,96,100,3.33
532,whitehorse,CA,1582183127,60.72,-135.05,28.0,26.15,73,20,14.99
533,beisfjord,NO,1582183127,68.38,17.6,23.0,14.92,45,31,17.22
534,tessalit,ML,1582183127,20.2,1.01,62.4,62.4,16,11,13.65
535,florida,US,1582183127,28.75,-82.5,70.0,66.7,93,40,4.7
536,aksarka,RU,1582183128,66.56,67.8,23.09,23.09,92,87,2.28
537,banfora,BF,1582183128,10.63,-4.77,69.13,69.13,18,0,4.34
538,merauke,ID,1582183128,-8.47,140.33,86.56,86.56,69,100,13.2
539,kahului,US,1582183128,20.89,-156.47,71.6,70.11,83,40,10.29
540,flin flon,CA,1582183128,54.77,-101.86,-0.87,-0.87,94,5,8.77
541,belfast,GB,1582183082,54.58,-5.93,41.0,40.06,86,100,11.41
542,wajir,KE,1582183129,1.75,40.06,83.84,83.84,54,50,11.95
543,gornopravdinsk,RU,1582183129,60.05,69.9,31.53,31.53,93,99,8.5
544,port keats,AU,1582183129,-14.25,129.55,91.85,91.85,58,81,12.12
545,nicolas bravo,MX,1582183129,18.45,-88.92,78.8,78.8,88,40,11.41
546,tarabha,IN,1582183130,20.73,83.65,88.47,88.47,34,5,1.52
547,novyy urengoy,RU,1582183130,66.08,76.63,32.29,32.29,100,100,4.5
548,alcudia,ES,1582182942,39.85,3.12,48.0,41.23,100,20,3.36
549,seoul,KR,1582182921,37.57,126.98,51.8,50.68,34,1,2.24
550,hami,CN,1582183131,42.8,93.45,30.97,30.97,42,95,7.34
551,litovko,RU,1582183131,49.24,135.17,12.42,12.42,85,60,9.22
552,praya,CV,1582183131,14.92,-23.51,67.84,67.84,86,91,16.98
553,yenagoa,NG,1582183131,4.92,6.26,75.76,75.76,95,46,2.15
554,la rioja,ES,1582183132,42.25,-2.5,28.4,28.4,100,0,2.24
555,agirish,RU,1582183132,61.92,63.02,28.38,28.38,88,100,7.27
556,gwadar,PK,1582183132,25.12,62.33,73.0,73.0,44,18,11.68
557,songjianghe,CN,1582183132,42.19,127.48,28.17,28.17,64,0,5.26
558,vestmanna,FO,1582183132,62.16,-7.17,37.4,37.4,69,100,29.97
559,liverpool,GB,1582183133,53.41,-2.98,52.0,49.57,81,75,20.8
